[{"adcode":"441200","name":"肇庆市","level":"city","center":{"lng":112.472529,"lat":23.051546}},{"adcode":"440600","name":"佛山市","level":"city","center":{"lng":113.122717,"lat":23.028762}},{"adcode":"440500","name":"汕头市","level":"city","center":{"lng":116.708463,"lat":23.37102}},{"adcode":"441300","name":"惠州市","level":"city","center":{"lng":114.412599,"lat":23.079404}},{"adcode":"440300","name":"深圳市","level":"city","center":{"lng":114.085947,"lat":22.547}},{"adcode":"440400","name":"珠海市","level":"city","center":{"lng":113.553986,"lat":22.224979}},{"adcode":"440800","name":"湛江市","level":"city","center":{"lng":110.364977,"lat":21.274898}},{"adcode":"441700","name":"阳江市","level":"city","center":{"lng":111.975107,"lat":21.859222}},{"adcode":"441500","name":"汕尾市","level":"city","center":{"lng":115.364238,"lat":22.774485}},{"adcode":"445100","name":"潮州市","level":"city","center":{"lng":116.632301,"lat":23.661701}},{"adcode":"440700","name":"江门市","level":"city","center":{"lng":113.094942,"lat":22.590431}},{"adcode":"445300","name":"云浮市","level":"city","center":{"lng":112.044439,"lat":22.929801}},{"adcode":"442100","name":"东沙群岛","level":"city","center":{"lng":116.887312,"lat":20.617512}},{"adcode":"440900","name":"茂名市","level":"city","center":{"lng":110.919229,"lat":21.659751}},{"adcode":"441600","name":"河源市","level":"city","center":{"lng":114.697802,"lat":23.746266}},{"adcode":"441400","name":"梅州市","level":"city","center":{"lng":116.117582,"lat":24.299112}},{"adcode":"441900","name":"东莞市","level":"city","center":{"lng":113.746262,"lat":23.046237}},{"adcode":"445200","name":"揭阳市","level":"city","center":{"lng":116.355733,"lat":23.543778}},{"adcode":"441800","name":"清远市","level":"city","center":{"lng":113.051227,"lat":23.685022}},{"adcode":"440200","name":"韶关市","level":"city","center":{"lng":113.591544,"lat":24.801322}},{"adcode":"440100","name":"广州市","level":"city","center":{"lng":113.280637,"lat":23.125178}},{"adcode":"442000","name":"中山市","level":"city","center":{"lng":113.382391,"lat":22.521113}}]