[{"adcode":"440305","name":"招商街道","level":"street","center":{"lng":113.921,"lat":22.4885}},{"adcode":"440305","name":"沙河街道","level":"street","center":{"lng":113.957,"lat":22.5347}},{"adcode":"440305","name":"西丽街道","level":"street","center":{"lng":113.945,"lat":22.6508}},{"adcode":"440305","name":"桃源街道","level":"street","center":{"lng":114.019,"lat":22.5792}},{"adcode":"440305","name":"粤海街道","level":"street","center":{"lng":113.956,"lat":22.5327}},{"adcode":"440305","name":"南头街道","level":"street","center":{"lng":113.909,"lat":22.5517}},{"adcode":"440305","name":"蛇口街道","level":"street","center":{"lng":113.852,"lat":22.4966}},{"adcode":"440305","name":"南山街道","level":"street","center":{"lng":113.927,"lat":22.5135}}]